{"type":"FeatureCollection","features":[{"type":"Feature","properties":{"name":"Cuarteron Reef","state":"China"},"geometry":{"type":"Point","coordinates":[112.82778,8.86389]}},{"type":"Feature","properties":{"name":"Fiery Cross Reef","state":"China"},"geometry":{"type":"Point","coordinates":[112.88917,9.54917]}},{"type":"Feature","properties":{"name":"Gaven Reefs","state":"China"},"geometry":{"type":"Point","coordinates":[114.225,10.20833]}},{"type":"Feature","properties":{"name":"Hughes Reef","state":"China"},"geometry":{"type":"Point","coordinates":[114.5,9.917]}},{"type":"Feature","properties":{"name":"Johnson South Reef","state":"China"},"geometry":{"type":"Point","coordinates":[114.287,9.715]}},{"type":"Feature","properties":{"name":"Mischief Reef","state":"China"},"geometry":{"type":"Point","coordinates":[115.533,9.917]}},{"type":"Feature","properties":{"name":"Subi Reef","state":"China"},"geometry":{"type":"Point","coordinates":[114.062,10.9133]}},{"type":"Feature","properties":{"name":"Ardasier Reef","state":"Malaysia"},"geometry":{"type":"Point","coordinates":[113.86083,7.62194]}},{"type":"Feature","properties":{"name":"Dallas Reef","state":"Malaysia"},"geometry":{"type":"Point","coordinates":[113.8,7.63889]}},{"type":"Feature","properties":{"name":"Erica Reef","state":"Malaysia"},"geometry":{"type":"Point","coordinates":[114.14361,8.1]}},{"type":"Feature","properties":{"name":"Investigator Shoal","state":"Malaysia"},"geometry":{"type":"Point","coordinates":[114.70194,8.11417]}},{"type":"Feature","properties":{"name":"Louisa Reef","state":"Malaysia"},"geometry":{"type":"Point","coordinates":[113.27972,6.33528]}},{"type":"Feature","properties":{"name":"Mariveles Reef","state":"Malaysia"},"geometry":{"type":"Point","coordinates":[113.895,7.99389]}},{"type":"Feature","properties":{"name":"Swallow Reef","state":"Malaysia"},"geometry":{"type":"Point","coordinates":[113.84167,7.37222]}},{"type":"Feature","properties":{"name":"Irving Reef","state":"Philippines"},"geometry":{"type":"Point","coordinates":[114.92,10.86]}},{"type":"Feature","properties":{"name":"Lankiam Cay","state":"Philippines"},"geometry":{"type":"Point","coordinates":[114.283,11.05]}},{"type":"Feature","properties":{"name":"Loaita Island","state":"Philippines"},"geometry":{"type":"Point","coordinates":[114.417,10.667]}},{"type":"Feature","properties":{"name":"Nanshan Island","state":"Philippines"},"geometry":{"type":"Point","coordinates":[115.8,10.733]}},{"type":"Feature","properties":{"name":"Northeast Cay","state":"Philippines"},"geometry":{"type":"Point","coordinates":[114.35444,11.4525]}},{"type":"Feature","properties":{"name":"Second Thomas Shoal","state":"Philippines"},"geometry":{"type":"Point","coordinates":[115.933,9.317]}},{"type":"Feature","properties":{"name":"Thitu Island","state":"Philippines"},"geometry":{"type":"Point","coordinates":[114.283,11.05]}},{"type":"Feature","properties":{"name":"West York Island","state":"Philippines"},"geometry":{"type":"Point","coordinates":[115,11.083]}},{"type":"Feature","properties":{"name":"Taiping Island","state":"Taiwan"},"geometry":{"type":"Point","coordinates":[114.36667,10.375]}},{"type":"Feature","properties":{"name":"Zhongzhou Reef","state":"Taiwan"},"geometry":{"type":"Point","coordinates":[114.41361,10.38611]}},{"type":"Feature","properties":{"name":"Amboyna Cay","state":"Vietnam"},"geometry":{"type":"Point","coordinates":[112.917,7.88333]}},{"type":"Feature","properties":{"name":"Collins reef","state":"Vietnam"},"geometry":{"type":"Point","coordinates":[114.25623,9.772738]}},{"type":"Feature","properties":{"name":"Ladd Reef","state":"Vietnam"},"geometry":{"type":"Point","coordinates":[111.67,8.67833]}},{"type":"Feature","properties":{"name":"Namyit Island","state":"Vietnam"},"geometry":{"type":"Point","coordinates":[114.36,10.18167]}},{"type":"Feature","properties":{"name":"Sand Cay","state":"Vietnam"},"geometry":{"type":"Point","coordinates":[114.476,10.3783]}},{"type":"Feature","properties":{"name":"Sin Cowe Island","state":"Vietnam"},"geometry":{"type":"Point","coordinates":[114.33,9.885]}},{"type":"Feature","properties":{"name":"Southwest Cay","state":"Vietnam"},"geometry":{"type":"Point","coordinates":[114.333,11.433]}},{"type":"Feature","properties":{"name":"Spratly Island","state":"Vietnam"},"geometry":{"type":"Point","coordinates":[111.92,8.64472]}}]}
